City_ID,City,Country,Lat,Lng,Max Temp,Humidity,Cloudiness,Wind Speed,Current Description
0,Cape Town,ZA,-33.9258,18.4232,70.09,64,20,18.41,few clouds
1,Talnakh,RU,69.4865,88.3972,18.14,94,100,9.37,light snow
2,Isangel,VU,-19.55,169.2667,76.08,88,46,3.11,scattered clouds
3,Filadelfia,US,39.9523,-75.1638,56.55,55,20,10.36,few clouds
4,Castro,BR,-24.7911,-50.0119,77.38,60,100,8.32,heavy intensity rain
5,Florianopolis,BR,-27.6146,-48.5012,81.41,61,20,14.97,light rain
6,Coquimbo,CL,-29.9533,-71.3436,58.73,82,75,8.05,broken clouds
7,Kurchum,KZ,48.5722,83.6542,33.76,52,5,6.85,clear sky
8,Te Anau,NZ,-45.4167,167.7167,50.34,90,69,5.79,light rain
9,Ushuaia,AR,-54.8,-68.3,42.42,87,100,21.85,light rain
10,Port Alfred,ZA,-33.5906,26.891,72.75,78,99,19.53,overcast clouds
11,Tuktoyaktuk,CA,69.4541,-133.0374,14.0,79,100,14.97,light snow
12,Chokurdakh,RU,70.6333,147.9167,4.08,96,100,7.58,light snow
13,Busselton,AU,-33.65,115.3333,49.37,87,97,20.27,light rain
14,Samarai,PG,-10.6167,150.6667,81.12,77,10,10.47,clear sky
15,Pevek,RU,69.7008,170.3133,10.38,95,100,6.8,light snow
16,Qaanaaq,GL,77.484,-69.3632,-10.88,67,0,8.25,clear sky
17,Mataura,NZ,-46.1927,168.8643,47.48,99,51,2.8,broken clouds
18,Grindavik,IS,63.8424,-22.4338,44.55,87,100,6.91,overcast clouds
19,Adrar,MR,20.5022,-10.0711,91.02,6,27,14.88,scattered clouds
20,Punta Arenas,CL,-53.15,-70.9167,42.82,80,86,26.4,light rain
21,Bluff,NZ,-46.6,168.3333,47.8,93,51,5.44,broken clouds
22,Fortuna,US,40.5982,-124.1573,50.94,78,0,11.5,clear sky
23,Soto La Marina,MX,23.7667,-98.2167,71.78,44,19,6.64,few clouds
24,Khatanga,RU,71.9667,102.5,4.84,90,100,4.09,overcast clouds
25,Saint-Philippe,RE,-21.3585,55.7679,74.79,79,41,8.21,scattered clouds
26,Mar Del Plata,AR,-38.0023,-57.5575,64.42,67,75,12.66,broken clouds
27,Kodiak,US,57.79,-152.4072,38.71,93,100,18.41,moderate rain
28,Yorosso,ML,12.3536,-4.7761,92.43,18,0,6.76,clear sky
29,Nikolskoye,RU,59.7035,30.7861,55.29,88,100,12.3,overcast clouds
30,Komsomolskiy,UZ,40.4272,71.7189,54.32,71,59,4.61,broken clouds
31,Sawakin,SD,19.1059,37.3321,85.46,68,93,8.46,overcast clouds
32,Hermanus,ZA,-34.4187,19.2345,67.8,80,100,7.87,overcast clouds
33,Sakakah,SA,29.9697,40.2064,83.77,29,82,17.27,broken clouds
34,Kamaishi,JP,39.2667,141.8833,48.92,76,1,7.45,clear sky
35,Jamestown,US,42.097,-79.2353,54.52,65,0,5.01,clear sky
36,Santa Luzia,BR,-19.7697,-43.8514,86.14,49,0,5.75,clear sky
37,Albany,US,42.6001,-73.9662,52.23,65,0,1.39,clear sky
38,Mount Gambier,AU,-37.8333,140.7667,42.1,97,9,2.17,clear sky
39,Barrow,US,71.2906,-156.7887,24.82,80,100,24.16,light snow
40,Pisco,PE,-13.7,-76.2167,66.02,72,20,9.22,haze
41,Kaitangata,NZ,-46.2817,169.8464,50.7,98,55,3.62,broken clouds
42,Klaksvik,FO,62.2266,-6.589,45.52,96,99,17.58,overcast clouds
43,Hobart,AU,-42.8794,147.3294,46.26,78,75,4.61,broken clouds
44,Madimba,TZ,-10.4,40.3333,79.92,73,20,14.97,few clouds
45,Chumikan,RU,54.7183,135.315,28.24,77,25,13.04,scattered clouds
46,Pangoa,PE,-12.1167,-73.0,83.34,62,68,4.07,light rain
47,Laguna,US,38.421,-121.4238,61.02,82,0,0.0,clear sky
48,Riyadh,SA,24.6877,46.7219,82.54,12,6,6.89,clear sky
49,Montepuez,MZ,-13.1256,38.9997,85.66,32,9,11.61,clear sky
50,Arraial Do Cabo,BR,-22.9661,-42.0278,89.56,69,0,11.5,clear sky
51,Kapaa,US,22.0752,-159.319,77.32,90,40,10.36,scattered clouds
52,Vaini,TO,-21.2,-175.2,71.76,94,40,3.44,scattered clouds
53,Bredasdorp,ZA,-34.5322,20.0403,66.58,72,100,12.53,overcast clouds
54,Atuona,PF,-9.8,-139.0333,76.91,72,2,16.42,clear sky
55,Basco,PH,20.4487,121.9702,79.88,85,100,29.64,overcast clouds
56,Guayaramerin,BO,-10.8368,-65.3614,84.25,70,40,4.61,scattered clouds
57,Sindor,RU,62.8629,51.8905,33.58,98,100,8.72,overcast clouds
58,Ixtapa,MX,20.7,-105.2,79.23,78,0,5.75,clear sky
59,Sitka,US,57.0531,-135.33,44.49,65,100,21.85,light rain
60,Jaciara,BR,-15.9653,-54.9683,86.92,45,99,9.24,overcast clouds
61,Port Macquarie,AU,-31.4333,152.9167,54.9,69,0,5.12,clear sky
62,Carnarvon,AU,-24.8667,113.6333,66.02,69,77,23.82,broken clouds
63,Butaritari,KI,3.0707,172.7902,81.57,67,31,17.0,scattered clouds
64,Dubti,ET,11.7361,41.0853,90.23,15,93,13.51,overcast clouds
65,Caborca,MX,30.5838,-111.101,66.29,24,0,3.87,clear sky
66,Souillac,MU,-20.5167,57.5167,75.58,73,40,5.75,scattered clouds
67,Sao Filipe,CV,14.8961,-24.4956,81.9,65,100,3.49,overcast clouds
68,Kaeo,NZ,-35.1,173.7833,65.32,97,100,10.2,light rain
69,Tocopilla,CL,-22.092,-70.1979,66.02,67,10,6.38,clear sky
70,Tobias Barreto,BR,-11.1839,-37.9983,92.25,36,92,14.7,overcast clouds
71,Jeremie,HT,18.65,-74.1167,84.38,66,99,5.73,overcast clouds
72,Ribeira Grande,PT,38.5167,-28.7,66.6,63,40,9.22,scattered clouds
73,Mizdah,LY,31.4451,12.9801,73.26,38,7,12.48,clear sky
74,Yellowknife,CA,62.456,-114.3525,23.52,93,75,9.22,light snow
75,Provideniya,RU,64.3833,-173.3,14.18,85,92,8.97,overcast clouds
76,Holovyne,UA,50.4712,28.8253,57.4,69,100,13.94,overcast clouds
77,Upernavik,GL,72.7868,-56.1549,15.57,69,66,17.11,broken clouds
78,Rikitea,PF,-23.1203,-134.9692,73.38,79,100,5.57,light rain
79,Tiksi,RU,71.6872,128.8694,3.49,91,94,7.72,overcast clouds
80,Kyshtovka,RU,56.555,76.6271,29.43,92,100,4.59,overcast clouds
81,New Norfolk,AU,-42.7826,147.0587,45.91,73,81,4.03,broken clouds
82,Puerto Ayora,EC,-0.7393,-90.3518,73.36,97,96,3.0,overcast clouds
83,Salisbury,GB,51.0693,-1.7957,66.69,80,100,13.8,light rain
84,Rudnya,RU,54.947,31.0934,52.43,92,100,12.26,overcast clouds
85,Chabahar,IR,25.2919,60.643,80.01,72,0,7.96,clear sky
86,Juruti,BR,-2.1522,-56.0922,95.16,34,79,6.04,broken clouds
87,Vilhena,BR,-12.7406,-60.1458,80.82,69,75,5.75,broken clouds
88,Severo-Kurilsk,RU,50.6789,156.125,38.08,74,68,6.15,broken clouds
89,Jacobina,BR,-11.1806,-40.5183,89.42,38,98,7.65,overcast clouds
90,Vicksburg,US,32.3526,-90.8779,70.03,92,75,13.8,broken clouds
91,Bethel,US,41.3712,-73.414,56.55,53,0,3.44,clear sky
92,Monaghan,IE,54.25,-6.9667,59.4,88,100,15.35,overcast clouds
93,Northam,GB,51.0333,-4.2167,63.39,85,100,19.3,overcast clouds
94,Mitsamiouli,KM,-11.3847,43.2844,82.69,54,20,9.22,few clouds
95,Forbes,AU,-33.3833,148.0167,52.92,82,2,4.14,clear sky
96,Leningradskiy,RU,69.3833,178.4167,11.55,88,100,20.11,overcast clouds
97,Port Elizabeth,ZA,-33.918,25.5701,76.1,68,0,13.8,clear sky
98,Zhigansk,RU,66.7697,123.3711,-0.31,94,100,7.34,overcast clouds
99,Manaure,CO,11.7751,-72.4445,83.59,67,68,10.42,broken clouds
100,Ewa Beach,US,21.3156,-158.0072,77.09,84,0,4.61,clear sky
101,Huarmey,PE,-10.0681,-78.1522,67.06,73,91,9.19,overcast clouds
102,Ampanihy,MG,-24.7,44.75,70.05,76,74,16.31,broken clouds
103,Clyde River,CA,70.4692,-68.5914,10.63,79,100,10.36,snow
104,Piacabucu,BR,-10.4056,-36.4344,83.84,57,100,12.33,overcast clouds
105,Stryn,NO,61.9045,6.7226,52.52,97,100,2.98,overcast clouds
106,Thompson,CA,55.7435,-97.8558,30.36,80,20,4.61,few clouds
107,Yulara,AU,-25.2406,130.9889,67.84,94,40,6.91,scattered clouds
108,Saint-Pierre,RE,-21.3393,55.4781,74.88,69,75,6.91,broken clouds
109,Geraldton,AU,-28.7667,114.6,61.21,82,75,17.27,light intensity shower rain
110,La Fleche,FR,47.6982,-0.0755,72.93,53,66,11.3,broken clouds
111,Ugoofaaru,MV,5.6667,73.0,82.38,68,69,7.87,broken clouds
112,Esperance,AU,-33.8667,121.9,55.24,86,100,23.71,light rain
113,Kavieng,PG,-2.5744,150.7967,82.56,73,100,9.22,overcast clouds
114,Volchansk,RU,59.9378,60.081,30.69,90,100,5.77,overcast clouds
115,Vostok,RU,46.4856,135.8833,25.43,85,6,1.99,clear sky
116,Broken Hill,AU,-31.95,141.4333,62.65,45,89,7.96,overcast clouds
117,Faanui,PF,-16.4833,-151.75,78.8,80,28,15.26,light rain
118,Ancud,CL,-41.8697,-73.8203,49.69,64,87,18.14,light rain
119,Jinxiang,CN,27.4327,120.6062,64.69,79,1,13.04,clear sky
120,Georgetown,MY,5.4112,100.3354,82.24,91,40,4.61,moderate rain
121,Chuy,UY,-33.6971,-53.4616,81.73,39,4,11.23,clear sky
122,Mahebourg,MU,-20.4081,57.7,75.49,73,40,5.75,scattered clouds
123,Port-Gentil,GA,-0.7193,8.7815,82.36,78,40,8.05,scattered clouds
124,San Juan,AR,-31.5375,-68.5364,84.74,19,53,9.35,broken clouds
125,Kilindoni,TZ,-7.9139,39.6668,77.86,79,86,12.82,overcast clouds
126,Lorengau,PG,-2.0226,147.2712,81.81,78,100,6.11,overcast clouds
127,Shaping,CN,22.7545,112.9565,76.95,52,89,11.3,overcast clouds
128,Ashcroft,CA,50.7165,-121.2859,42.22,88,97,4.92,overcast clouds
129,Sao Miguel Do Araguaia,BR,-13.275,-50.1628,73.38,93,100,7.9,moderate rain
130,Kijang,KR,35.2442,129.2139,55.13,69,94,9.71,overcast clouds
131,Salalah,OM,17.0151,54.0924,80.69,74,40,4.61,scattered clouds
132,Hithadhoo,MV,-0.6,73.0833,78.51,90,100,23.76,overcast clouds
133,Vanavara,RU,60.34,102.2797,24.35,85,90,8.86,overcast clouds
134,Vestmannaeyjar,IS,63.4427,-20.2734,43.79,93,100,21.85,drizzle
135,Coahuayana,MX,18.7333,-103.6833,83.61,71,5,0.98,clear sky
136,Shingu,JP,33.7333,135.9833,51.33,77,10,6.78,clear sky
137,Minbu,MM,20.1833,94.8833,78.57,71,8,4.05,clear sky
138,Port Lincoln,AU,-34.7333,135.8667,56.16,69,100,15.59,light rain
139,Avarua,CK,-21.2078,-159.775,73.45,73,40,10.36,scattered clouds
140,Pangnirtung,CA,66.1451,-65.7125,26.6,46,20,5.75,few clouds
141,Namibe,AO,-15.1961,12.1522,75.83,83,75,0.0,broken clouds
142,Cabo San Lucas,MX,22.8909,-109.9124,78.51,68,82,0.2,broken clouds
143,Phonhong,LA,18.5007,102.4166,72.43,84,49,0.92,scattered clouds
144,Sokoto,NG,13.0609,5.239,92.79,16,0,9.6,clear sky
145,Kruisfontein,ZA,-34.0033,24.7314,72.88,54,100,8.86,overcast clouds
146,Kingman,US,35.1894,-114.053,60.55,25,0,8.05,clear sky
147,Mayo,US,38.8876,-76.5119,59.95,65,20,10.36,few clouds
148,Ust-Koksa,RU,50.2696,85.6108,23.49,67,6,1.23,clear sky
149,Fukue,JP,32.6881,128.8419,64.45,63,2,23.04,clear sky
150,Touros,BR,-5.1989,-35.4608,85.44,55,49,18.72,scattered clouds
151,Kalmar,SE,56.6616,16.3616,57.15,81,75,14.97,broken clouds
152,East London,ZA,-33.0153,27.9116,72.54,73,0,12.66,clear sky
153,Nelson Bay,AU,-32.7167,152.15,62.01,56,0,7.0,clear sky
154,Fairbanks,US,64.8378,-147.7164,10.92,81,0,8.05,clear sky
155,Dikson,RU,73.5069,80.5464,20.37,83,100,0.81,overcast clouds
156,Jalingo,NG,8.8833,11.3667,89.28,37,63,0.92,broken clouds
157,Abu Kamal,SY,34.4506,40.9171,74.23,28,100,2.04,overcast clouds
158,Sovetskaya Gavan,RU,48.9723,140.2878,34.48,75,15,5.59,few clouds
159,Bengkulu,ID,-3.8004,102.2655,75.79,91,75,5.14,broken clouds
160,Vila Velha,BR,-20.3297,-40.2925,91.35,69,20,10.36,few clouds
161,Aklavik,CA,68.2191,-135.0107,12.2,85,100,4.61,light snow
162,Verkhnyaya Inta,RU,65.9811,60.3094,26.64,80,98,8.59,overcast clouds
163,Bereda,ES,43.2686,-7.5406,60.42,99,100,5.53,overcast clouds
164,Porto Santo,PT,33.072,-16.3415,71.98,73,40,6.91,scattered clouds
165,Haines Junction,CA,60.7522,-137.5108,6.75,85,83,3.44,broken clouds
166,Narsaq,GL,60.9167,-46.05,30.42,85,46,7.11,scattered clouds
167,Sorland,NO,67.667,12.6934,40.86,58,100,29.35,overcast clouds
168,Axim,GH,4.8699,-2.2405,82.63,73,39,9.06,light rain
169,Watertown,US,42.3709,-71.1828,57.0,66,0,8.05,clear sky
170,Gat,IL,31.61,34.7642,79.39,100,0,9.06,clear sky
171,Oxford,GB,51.7522,-1.256,68.49,76,20,14.97,few clouds
172,Omaruru,NA,-21.4333,15.9333,88.27,10,5,23.06,clear sky
173,Omboue,GA,-1.5746,9.2618,80.83,73,88,7.47,overcast clouds
174,Lebu,CL,-37.6167,-73.65,55.42,96,100,13.71,overcast clouds
175,Greenwood,US,34.1668,-82.1165,58.28,81,100,13.8,overcast clouds
176,Sao Joao Da Barra,BR,-21.6403,-41.0511,87.89,73,44,14.83,scattered clouds
177,Puro,PH,12.4841,123.3827,80.51,86,100,22.15,moderate rain
178,Boende,CD,-0.2167,20.8667,75.6,96,100,1.74,light rain
179,Norman Wells,CA,65.282,-126.8329,15.84,92,100,2.3,light snow
180,Cidreira,BR,-30.1811,-50.2056,80.71,63,8,6.17,clear sky
181,Vwawa,TZ,-9.1167,32.9333,77.61,26,96,8.77,overcast clouds
182,Rio Claro,BR,-22.4114,-47.5614,91.74,32,4,4.61,clear sky
183,Telimele,GN,10.9167,-13.3333,85.51,56,42,3.0,scattered clouds
184,Cherskiy,RU,68.75,161.3,-2.87,99,100,4.81,overcast clouds
185,Codrington,AU,-38.2667,141.9667,43.3,95,7,8.57,clear sky
186,Boyolangu,ID,-8.1181,111.8935,74.37,80,98,4.85,overcast clouds
187,Hofn,IS,64.2539,-15.2082,40.28,72,99,6.67,overcast clouds
188,Nishihara,JP,26.1842,127.7558,76.28,79,20,14.97,few clouds
189,Ravar,IR,31.2656,56.8055,73.38,19,4,4.76,clear sky
190,Mehamn,NO,71.0357,27.8492,39.11,93,75,24.16,broken clouds
191,Tilichiki,RU,60.4667,166.1,5.59,86,37,6.35,scattered clouds
192,Broome,US,42.2506,-75.833,55.6,61,0,3.0,clear sky
193,Atar,MR,20.5169,-13.0499,95.23,6,35,14.56,scattered clouds
194,Constitucion,CL,-35.3333,-72.4167,62.85,74,3,9.89,clear sky
195,Coari,BR,-4.085,-63.1414,73.53,98,100,3.65,overcast clouds
196,Taksimo,RU,56.3444,114.8794,18.99,87,100,0.83,overcast clouds
197,Wangaratta,AU,-36.3667,146.3333,51.48,89,80,1.57,broken clouds
198,Casper,US,42.8666,-106.3131,44.82,44,0,14.97,clear sky
199,Ketchikan,US,55.3422,-131.6461,45.07,87,100,16.11,moderate rain
200,Faya,SA,18.3851,42.4509,64.92,74,51,7.11,broken clouds
201,Dingle,PH,10.9995,122.6711,77.54,91,100,17.27,moderate rain
202,Lubumbashi,CD,-11.6609,27.4794,82.99,22,47,3.71,scattered clouds
203,San Patricio,US,28.017,-97.5169,66.07,54,0,12.48,clear sky
204,Sandy Bay,AU,-42.913,147.3532,46.29,78,45,5.75,scattered clouds
205,Moyale,KE,3.5167,39.0584,72.82,62,68,7.63,broken clouds
206,Viedma,AR,-40.8135,-62.9967,66.25,23,44,9.95,scattered clouds
207,Segezha,RU,63.7415,34.3222,47.25,94,100,20.31,light rain
208,Katsuura,JP,35.1333,140.3,59.02,63,39,12.84,scattered clouds
209,Panormos,GR,35.4182,24.6909,67.01,71,78,5.79,broken clouds
210,Goroka,PG,-6.0834,145.3873,58.21,93,99,1.03,overcast clouds
211,Luderitz,NA,-26.6481,15.1594,62.19,82,40,12.03,scattered clouds
212,Kipini,KE,-2.5257,40.5262,80.89,81,55,11.18,broken clouds
213,Bulgan,MN,48.8125,103.5347,28.4,93,83,3.4,broken clouds
214,Whitehorse,CA,60.7161,-135.0538,20.17,92,40,13.8,scattered clouds
215,Penzance,GB,50.1186,-5.5371,60.12,88,20,18.41,few clouds
216,General Roca,AR,-39.0333,-67.5833,70.63,32,91,37.2,light rain
217,Hilo,US,19.7297,-155.09,71.62,84,75,5.75,broken clouds
218,Tommot,RU,58.9564,126.2925,16.32,95,100,2.19,overcast clouds
219,Sur,OM,22.5667,59.5289,78.28,72,0,7.78,clear sky
220,Saint George,US,37.1041,-113.5841,52.43,39,0,0.0,clear sky
221,Nanyamba,TZ,-10.6833,39.8333,74.48,71,27,8.1,scattered clouds
222,Manokwari,ID,-0.8667,134.0833,79.39,80,82,5.32,broken clouds
223,Tecoanapa,MX,16.5167,-98.75,83.61,74,11,0.49,few clouds
224,Termoli,IT,41.9888,14.9895,68.77,68,0,3.11,clear sky
225,San Borja,BO,-14.8167,-66.85,92.3,47,77,6.96,broken clouds
226,Nanortalik,GL,60.1432,-45.2371,33.39,72,45,6.33,scattered clouds
227,Issoire,FR,45.55,3.25,78.06,43,99,7.07,overcast clouds
228,Vallenar,CL,-28.5708,-70.7581,81.16,25,1,7.56,clear sky
229,Taoudenni,ML,22.6783,-3.9836,93.96,7,0,9.42,clear sky
230,Baiyin,CN,36.5583,104.2081,47.39,54,21,3.78,few clouds
231,Puerto Lopez,CO,4.0845,-72.956,82.15,76,96,1.32,overcast clouds
232,Gigmoto,PH,13.7796,124.39,80.62,89,100,20.96,light rain
233,Charters Towers,AU,-20.1,146.2667,74.79,49,0,5.48,clear sky
234,Ponta Do Sol,PT,32.6667,-17.1,75.7,85,100,3.4,overcast clouds
235,Hayden,US,47.766,-116.7866,47.44,85,100,3.44,overcast clouds
236,Ambovombe,MG,-25.1667,46.0833,69.87,85,100,20.0,overcast clouds
237,Valparaiso,CL,-33.0393,-71.6273,71.83,56,0,12.66,clear sky
238,Aubenas,FR,44.6201,4.3899,66.16,73,100,3.0,overcast clouds
239,Jimma,ET,7.6667,36.8333,61.09,81,76,0.31,broken clouds
240,Marawi,PH,7.9986,124.2928,70.25,92,100,7.25,overcast clouds
241,Yar-Sale,RU,66.8333,70.8333,20.19,89,93,10.94,overcast clouds
242,Naze,JP,28.3667,129.4833,70.72,81,90,20.38,overcast clouds
243,Itarema,BR,-2.9248,-39.9167,90.32,52,62,20.07,broken clouds
244,Maceio,BR,-9.6658,-35.7353,85.44,61,75,12.66,broken clouds
245,Derzhavinsk,KZ,51.1,66.3167,30.02,67,100,9.73,overcast clouds
246,Oussouye,SN,12.485,-16.5469,93.38,53,20,9.33,few clouds
247,Ban Nahin,LA,18.2418,104.2122,69.93,87,100,4.43,overcast clouds
248,Bonthe,SL,7.5264,-12.505,83.88,70,63,5.01,light rain
249,Tazovskiy,RU,67.4667,78.7,20.75,88,92,16.37,overcast clouds
250,Stornoway,GB,58.2093,-6.3865,53.92,92,73,8.05,broken clouds
251,Grand-Santi,GF,4.25,-54.3833,80.67,88,83,3.85,broken clouds
252,Ostrovnoy,RU,68.0531,39.5131,39.74,97,100,21.97,overcast clouds
253,Smithers,CA,54.7804,-127.1743,32.32,86,100,4.61,light snow
254,Dubbo,AU,-32.25,148.6167,48.33,93,0,3.44,clear sky
255,Lagoa,PT,39.05,-27.9833,62.42,62,94,13.11,overcast clouds
256,Le Port,RE,-20.9373,55.2919,75.2,74,77,3.87,broken clouds
257,Sosnovo-Ozerskoye,RU,52.5249,111.5418,28.72,77,100,4.97,overcast clouds
258,Hamilton,US,39.1834,-84.5333,62.74,54,0,5.75,clear sky
259,Anamur,TR,36.0751,32.8369,70.84,46,0,4.63,clear sky
260,Canon City,US,38.441,-105.2424,56.62,29,0,11.5,clear sky
261,Namatanai,PG,-3.6667,152.4333,80.92,79,81,6.49,broken clouds
262,Champerico,GT,14.3,-91.9167,86.54,72,100,2.68,overcast clouds
263,Baykit,RU,61.67,96.37,25.09,86,99,6.33,overcast clouds
264,Rovaniemi,FI,66.5,25.7167,35.01,93,100,14.97,overcast clouds
265,Bambous Virieux,MU,-20.3428,57.7575,75.45,73,40,5.75,scattered clouds
266,Makinsk,KZ,52.6292,70.4169,20.08,89,100,5.7,overcast clouds
267,Beringovskiy,RU,63.05,179.3167,15.44,66,11,16.44,few clouds
268,Tateyama,JP,34.9833,139.8667,58.93,55,20,11.5,few clouds
269,Carutapera,BR,-1.195,-46.02,90.54,52,100,13.06,overcast clouds
270,Victoria,HK,22.2855,114.1577,77.38,64,79,11.01,broken clouds
271,Pangai,TO,-19.8,-174.35,76.8,86,97,15.12,moderate rain
272,Miri,MY,4.4148,114.0089,84.34,79,40,6.91,light rain
273,Chara,RU,56.9064,118.2631,22.91,62,100,0.67,overcast clouds
274,Dingli,MT,35.8614,14.3822,70.81,67,0,13.47,clear sky
275,Port Blair,IN,11.6667,92.75,77.04,94,100,6.91,thunderstorm with rain
276,Marienburg,PL,54.0359,19.0266,58.87,59,100,12.66,overcast clouds
277,Kapit,MY,2.0167,112.9333,74.21,96,94,1.45,overcast clouds
278,Tasiilaq,GL,65.6145,-37.6368,35.76,98,100,16.26,moderate rain
279,Zhangye,CN,38.9342,100.4517,46.67,34,61,4.81,broken clouds
280,Ochamchira,GE,42.7121,41.4721,54.79,80,96,3.89,overcast clouds
281,Sibolga,ID,1.7427,98.7792,76.6,89,97,2.01,moderate rain
282,Charleston,US,32.7766,-79.9309,62.02,91,100,11.5,overcast clouds
283,Grasse,FR,43.6667,6.9167,70.56,48,0,2.3,clear sky
284,Dalvik,IS,65.9702,-18.5286,44.53,73,76,2.68,broken clouds
285,Vardo,NO,70.3705,31.1107,37.38,93,100,13.8,light rain
286,Wanning,CN,18.8003,110.3967,73.02,84,75,8.16,broken clouds
287,Ust-Kulom,RU,61.6864,53.6902,33.17,98,100,8.43,light snow
288,Portland,US,45.5234,-122.6762,54.01,95,100,5.75,light intensity drizzle
289,Moron,AR,-34.6534,-58.6198,85.01,45,50,7.9,scattered clouds
290,Minab,IR,27.1467,57.0801,81.86,63,0,3.94,clear sky
291,Russkaya Polyana,UA,49.417,31.9201,58.6,63,99,12.88,overcast clouds
292,Tungor,RU,53.3808,142.9564,31.6,80,7,8.41,clear sky
293,San Carlos De Bariloche,AR,-41.1456,-71.3082,42.03,91,75,2.3,sleet
294,Moses Lake,US,47.1301,-119.2781,34.48,93,0,3.44,clear sky
295,Dandong,CN,40.1292,124.3947,45.93,60,89,3.98,overcast clouds
296,Kieta,PG,-6.2167,155.6333,80.69,85,44,5.66,light rain
297,Osmena,PH,10.5208,119.9258,81.68,78,100,15.82,overcast clouds
298,Kasempa,ZM,-13.4584,25.8338,83.59,26,61,6.4,broken clouds
299,Tahe,CN,52.3333,124.7333,27.23,61,97,2.57,overcast clouds
300,Roald,NO,62.5833,6.1333,52.75,81,75,4.61,broken clouds
301,Dutse,NG,11.7594,9.3392,89.29,20,85,7.76,overcast clouds
302,Saldanha,ZA,-33.0117,17.9442,69.85,83,100,20.33,overcast clouds
303,Uthal,PK,25.8072,66.6219,79.57,61,30,5.48,scattered clouds
304,Natal,BR,-5.795,-35.2094,86.65,65,40,21.85,scattered clouds
305,Bathsheba,BB,13.2167,-59.5167,86.61,74,20,18.41,few clouds
306,Kahului,US,20.8947,-156.47,77.85,76,0,10.36,clear sky
307,Bilma,NE,18.6853,12.9164,83.5,14,0,5.39,clear sky
308,Vanimo,PG,-2.6741,141.3028,77.58,89,97,4.27,overcast clouds
309,Havoysund,NO,70.9963,24.6622,37.63,68,100,23.94,overcast clouds
310,Chake Chake,TZ,-5.2459,39.7666,76.62,84,82,8.97,broken clouds
311,Orlik,RU,52.5178,99.825,19.0,92,100,3.78,overcast clouds
312,Ilulissat,GL,69.2167,-51.1,33.82,86,75,8.05,broken clouds
313,Yumen,CN,40.2833,97.2,43.02,39,99,2.91,overcast clouds
314,Peniche,PT,39.3558,-9.3811,66.29,90,100,10.54,light rain
315,Tenenkou,ML,14.4572,-4.9169,95.0,11,0,10.71,clear sky
316,Lukovo,MK,41.3494,20.6047,60.39,47,3,4.09,clear sky
317,Meulaboh,ID,4.1363,96.1285,77.43,87,100,3.74,heavy intensity rain
318,San Cristobal,VE,7.7669,-72.225,77.18,40,98,2.73,overcast clouds
319,Daru,PG,-9.0763,143.2092,79.43,79,24,9.66,few clouds
320,Snyder,US,32.7179,-100.9176,53.31,76,75,10.36,broken clouds
321,Nemuro,JP,43.3236,145.575,49.42,87,0,9.64,clear sky
322,Klyuchi,RU,52.2667,79.1667,27.95,47,76,4.54,broken clouds
323,Dhidhdhoo,MV,6.8833,73.1,82.02,68,53,6.15,broken clouds
324,Chapais,CA,49.7834,-74.8492,46.18,58,66,13.38,broken clouds
325,Porto Novo,BJ,6.4965,2.6036,87.62,67,81,8.7,broken clouds
326,Kondopoga,RU,62.2057,34.2614,51.48,96,100,11.92,overcast clouds
327,Aitape,PG,-3.1374,142.3475,78.12,89,100,5.37,overcast clouds
328,Mekhe,SN,15.1097,-16.6218,96.26,28,2,0.96,clear sky
329,Vitim,RU,59.4511,112.5578,30.58,83,100,6.2,overcast clouds
330,San Jose,US,37.3394,-121.895,62.49,81,20,0.0,haze
331,Jadu,LY,31.953,12.0261,70.18,42,0,9.55,clear sky
332,Mmathubudukwane,BW,-24.6,26.4333,81.03,39,21,9.13,few clouds
333,Rio Gallegos,AR,-51.6226,-69.2181,50.05,32,40,40.29,scattered clouds
334,Nabire,ID,-3.3667,135.4833,75.38,92,100,3.29,overcast clouds
335,Alofi,NU,-19.0595,-169.9187,73.29,94,100,12.66,overcast clouds
336,Qaqortoq,GL,60.7167,-46.0333,30.34,84,21,6.29,few clouds
337,Denpasar,ID,-8.65,115.2167,78.46,78,20,1.14,few clouds
338,Bonavista,CA,48.6499,-53.1147,50.22,56,2,18.97,clear sky
339,Lata,PT,40.1629,-8.3327,64.08,92,100,3.04,overcast clouds
340,Lavrentiya,RU,65.5833,-171.0,22.14,77,100,13.67,overcast clouds
341,Teguldet,RU,57.3064,88.1667,27.93,91,96,7.56,overcast clouds
342,Joshimath,IN,30.5667,79.5667,52.41,45,3,6.91,clear sky
343,Muncar,ID,-8.4333,114.3333,74.12,84,58,3.85,broken clouds
344,Vysokogornyy,RU,50.1167,139.15,25.86,94,27,2.13,scattered clouds
345,Murray Bridge,AU,-35.1167,139.2667,52.12,85,98,4.18,overcast clouds
346,San Quintin,MX,30.4833,-115.95,65.73,75,2,8.55,clear sky
347,Paita,PE,-5.0892,-81.1144,70.38,66,89,8.7,overcast clouds
348,Kismayo,SO,-0.3582,42.5454,79.02,82,94,10.87,overcast clouds
349,Sogne,NO,58.0833,7.8167,54.16,95,98,12.17,overcast clouds
350,Dalhousie,IN,32.5333,75.9833,48.0,61,0,6.46,clear sky
351,Egvekinot,RU,66.3167,-179.1667,9.95,71,100,11.83,overcast clouds
352,Anloga,GH,5.7947,0.8973,83.35,72,28,10.92,scattered clouds
353,Cockburn Town,TC,21.4612,-71.1419,82.44,74,4,15.79,clear sky
354,Canakkale,TR,40.0833,26.8333,52.66,75,0,12.5,clear sky
355,Muros,ES,42.7762,-9.0603,65.14,69,100,9.62,overcast clouds
356,Birjand,IR,32.8663,59.2211,70.27,16,40,6.91,scattered clouds
357,Lima,PE,-12.0432,-77.0282,65.89,76,100,8.05,mist
358,La Palma,US,33.8464,-118.0467,72.9,82,0,3.44,clear sky
359,Inuvik,CA,68.3499,-133.7218,13.06,85,75,9.22,light snow
360,Cotonou,BJ,6.3654,2.4183,87.78,70,20,12.66,few clouds
361,Agudos,BR,-22.4692,-48.9875,91.65,37,0,11.5,clear sky
362,Manzil Salim,TN,35.8567,8.4765,75.83,16,0,3.31,clear sky
363,Ukiah,US,39.1502,-123.2078,58.05,87,0,0.0,clear sky
364,Oranjemund,NA,-28.55,16.4333,62.51,89,28,11.34,scattered clouds
365,Berlevag,NO,70.8578,29.0864,39.15,87,75,27.63,light intensity drizzle
366,Kutum,SD,14.2,24.6667,81.82,19,12,8.46,few clouds
367,Maldonado,UY,-34.6667,-54.9167,74.59,46,88,17.52,overcast clouds
368,Moville,US,42.4889,-96.0725,55.6,46,0,11.97,clear sky
369,Margate,GB,51.3813,1.3862,68.88,74,88,3.0,overcast clouds
370,College,US,64.8569,-147.8028,9.9,80,75,8.05,broken clouds
371,Itoman,JP,26.1247,127.6694,77.02,78,20,14.97,few clouds
372,Narasannapeta,IN,18.4167,84.05,73.29,69,32,5.95,scattered clouds
373,Olafsvik,IS,64.8945,-23.7142,43.48,86,85,10.45,overcast clouds
374,Shache,CN,38.4167,77.2406,57.7,24,2,7.54,clear sky
375,Husavik,IS,66.0449,-17.3389,34.84,71,64,6.08,broken clouds
376,Ust-Tsilma,RU,65.441,52.1498,35.33,99,100,8.48,overcast clouds
377,Bowen,AU,-20.0167,148.2333,76.87,75,0,5.03,clear sky
378,Tapes,BR,-30.6733,-51.3958,85.32,51,0,7.96,clear sky
379,Shenjiamen,CN,29.9576,122.298,66.79,78,43,11.81,scattered clouds
380,Yerbogachen,RU,61.2767,108.0108,23.49,87,72,8.7,broken clouds
381,Aksarka,RU,66.5606,67.7975,19.89,90,86,11.18,overcast clouds
382,Ler,SS,8.3018,30.1418,81.61,54,100,4.36,overcast clouds
383,Garowe,SO,8.4054,48.4845,84.78,43,16,9.62,few clouds
384,Torbay,CA,47.6666,-52.7314,52.57,61,20,19.57,few clouds
385,Praia Da Vitoria,PT,38.7333,-27.0667,68.25,60,20,9.91,few clouds
386,Antsohihy,MG,-14.8796,47.9875,79.0,75,57,7.31,broken clouds
387,Shellbrook,CA,53.2168,-106.4011,33.03,56,41,11.77,scattered clouds
388,Hangu,CN,39.2489,117.7892,53.64,68,100,5.91,overcast clouds
389,Avera,US,33.194,-82.5271,62.11,73,94,11.3,overcast clouds
390,Wajima,JP,37.4,136.9,55.35,58,61,5.91,broken clouds
391,Olavarria,AR,-36.8927,-60.3225,70.02,45,28,12.24,scattered clouds
392,Santa Rosa,PH,14.3122,121.1114,76.1,98,100,11.45,moderate rain
393,Plettenberg Bay,ZA,-34.0527,23.3716,67.55,62,100,4.23,overcast clouds
394,Villa Carlos Paz,AR,-31.4241,-64.4978,86.4,30,4,7.0,clear sky
395,Pitea,SE,65.3172,21.4794,41.09,59,78,20.0,broken clouds
396,Bilibino,RU,68.0546,166.4372,-1.68,100,100,1.39,overcast clouds
397,Uvat,RU,59.1433,68.8953,30.52,87,100,7.58,overcast clouds
398,Noumea,NC,-22.2763,166.4572,77.0,99,1,2.77,clear sky
399,Camopi,GF,3.1655,-52.3158,81.23,90,75,4.09,moderate rain
400,Vahan,AM,40.5755,45.3977,37.29,81,65,3.71,broken clouds
401,Opaka,BG,43.45,26.1667,57.45,54,0,3.71,clear sky
402,Vagur,FO,61.4732,-6.8119,49.59,93,87,11.88,overcast clouds
403,Ternate,ID,0.8,127.4,81.64,78,93,1.5,overcast clouds
404,Cabo Rojo,PR,18.0866,-67.1457,88.79,73,96,5.01,overcast clouds
405,Tevaitoa,PF,-16.7833,-151.5,79.63,76,60,14.88,light rain
406,Constantine,DZ,36.365,6.6147,81.81,14,0,5.75,clear sky
407,Batagay,RU,67.6333,134.6333,-9.56,97,46,2.89,scattered clouds
408,Yanam,IN,16.7333,82.2167,74.17,66,66,4.23,broken clouds
409,Douala,CM,4.0483,9.7043,77.92,84,100,3.6,overcast clouds
410,Bogande,BF,12.9714,-0.1436,94.01,10,0,8.43,clear sky
411,Vao,NC,-22.6667,167.4833,74.98,83,0,9.71,clear sky
412,Hollins,US,37.3413,-79.9431,55.96,78,100,5.75,overcast clouds
413,Saskylakh,RU,71.9167,114.0833,3.81,88,100,9.71,overcast clouds
414,Half Moon Bay,US,37.4636,-122.4286,58.98,84,20,4.61,mist
415,Dali,CN,25.7,100.1833,55.44,79,0,3.53,clear sky
416,Iqaluit,CA,63.7506,-68.5145,11.93,85,40,5.75,scattered clouds
417,Batemans Bay,AU,-35.7167,150.1833,48.63,73,0,4.52,clear sky
418,Abalak,RU,58.1286,68.5944,28.53,85,97,5.95,overcast clouds
419,Ushtobe,KZ,45.2514,77.9838,45.95,39,100,7.05,light rain
420,Caravelas,BR,-17.7125,-39.2481,84.11,58,38,11.14,scattered clouds
421,Nova Ushytsya,UA,48.8372,27.2743,57.16,54,99,7.45,overcast clouds
422,Rocha,UY,-34.4833,-54.3333,84.36,35,67,10.67,broken clouds
423,Tual,ID,-5.6667,132.75,83.82,74,91,6.35,overcast clouds
424,Teknaf,BD,20.8624,92.3058,76.77,86,0,7.58,clear sky
425,Tutoia,BR,-2.7619,-42.2744,87.46,57,98,15.12,overcast clouds
426,Huaihua,CN,27.5494,109.9592,58.06,93,100,3.33,overcast clouds
427,Trelew,AR,-43.249,-65.3051,59.27,21,0,19.57,clear sky
428,Banda Aceh,ID,5.5577,95.3222,79.45,83,76,7.52,heavy intensity rain
429,Salta,AR,-24.7859,-65.4117,94.57,21,0,4.61,clear sky
430,Jardim,BR,-21.4803,-56.1381,94.1,42,49,11.27,light rain
431,Cayenne,GF,4.9333,-52.3333,77.04,94,100,1.14,light rain
432,Ibra,OM,22.6906,58.5334,75.87,56,0,7.81,clear sky
433,Katherine,AU,-14.4667,132.2667,86.32,58,75,11.5,broken clouds
434,Houma,US,29.5958,-90.7195,78.01,93,82,12.5,broken clouds
435,Chunoyar,RU,57.4467,97.3217,28.2,92,100,9.62,light snow
436,Micheweni,TZ,-4.9667,39.8333,78.04,83,72,9.62,broken clouds
437,The Pas,CA,53.8251,-101.2541,33.82,80,75,5.75,broken clouds
438,Vila,PT,42.0304,-8.1588,54.48,95,100,6.13,overcast clouds
439,Airai,TL,-8.9266,125.4092,62.29,93,96,0.25,overcast clouds
440,Zhuhai,CN,22.2769,113.5678,76.86,73,20,18.41,few clouds
441,Mpika,ZM,-11.8343,31.4529,77.67,26,31,3.13,scattered clouds
442,Hailar,CN,49.2,119.7,37.02,33,100,6.78,overcast clouds
443,Taltal,CL,-25.4,-70.4833,63.72,67,22,6.67,few clouds
444,Buala,SB,-8.145,159.5921,80.22,84,30,4.45,light rain
445,Eydhafushi,MV,5.1033,73.0708,80.78,73,100,5.41,overcast clouds
446,Liverpool,GB,53.4106,-2.9779,65.08,92,75,10.36,broken clouds
447,Landau,DE,49.2075,8.1133,70.57,83,100,3.44,overcast clouds
448,Gizo,SB,-8.103,156.8419,81.57,79,29,6.11,moderate rain
449,Oga,IT,46.4631,10.347,63.28,67,15,2.84,few clouds
450,Alice,US,27.7523,-98.0697,66.49,59,0,13.8,clear sky
451,Karratha,AU,-20.7377,116.8463,70.59,41,0,22.35,clear sky
452,Barmer,IN,25.75,71.3833,80.22,23,0,2.3,clear sky
453,Timra,SE,62.487,17.3257,45.68,61,7,19.57,clear sky
454,Windhoek,NA,-22.5594,17.0832,91.89,9,0,13.8,clear sky
455,Birin,NP,26.8865,88.0718,55.36,80,0,4.61,clear sky
456,Teya,RU,60.3778,92.6267,26.01,83,98,8.19,overcast clouds
457,Kota Kinabalu,MY,5.9749,116.0724,82.38,89,40,5.75,moderate rain
458,Dzerzhinsk,RU,56.2389,43.4631,40.82,100,100,4.47,light rain
459,Devils Lake,US,48.1128,-98.8651,42.91,75,40,3.44,scattered clouds
460,Crotone,IT,39.0851,17.1178,68.99,58,0,8.52,clear sky
461,Ayabaca,PE,-4.6398,-79.7149,65.79,28,99,5.17,overcast clouds
462,Opuwo,NA,-18.0607,13.84,84.61,27,100,13.89,overcast clouds
463,Port Hedland,AU,-20.3167,118.5667,71.65,68,0,12.66,clear sky
464,La Ronge,CA,55.1001,-105.2842,34.05,69,100,4.61,overcast clouds
465,Umm Kaddadah,SD,13.6017,26.6876,88.59,18,75,13.24,broken clouds
466,Achalpur,IN,21.2572,77.5086,70.21,50,0,3.85,clear sky
467,Praia,CV,14.9215,-23.5087,91.94,18,0,18.41,clear sky
468,Gombong,ID,-7.6072,109.5142,75.88,81,99,3.0,overcast clouds
469,Tucuman,AR,-26.8241,-65.2226,95.0,28,0,3.44,clear sky
470,Umea,SE,63.8284,20.2597,42.73,65,0,24.16,clear sky
471,Nuevo Imperial,PE,-13.0754,-76.3172,69.17,60,17,8.68,few clouds
472,Shelburne,CA,44.0787,-80.2041,52.36,64,30,6.58,scattered clouds
473,Siyana,IN,28.6277,78.0599,71.91,49,0,3.47,clear sky
474,Launceston,AU,-41.45,147.1667,45.81,79,7,3.44,clear sky
475,Westport,US,41.1415,-73.3579,56.86,62,0,8.05,clear sky
476,Harper,LR,4.375,-7.7169,82.11,75,83,6.78,light rain
477,Kazanskaya,RU,45.4106,40.4361,47.68,67,29,1.36,scattered clouds
478,Abyek,IR,36.0667,50.55,53.26,53,94,6.69,overcast clouds
479,Kudahuvadhoo,MV,2.6708,72.8944,81.16,77,68,11.18,broken clouds
480,Ondjiva,AO,-17.0667,15.7333,87.73,28,99,6.44,overcast clouds
481,Mackay,AU,-21.15,149.2,69.67,80,4,3.09,clear sky
482,Kulhudhuffushi,MV,6.6221,73.07,82.0,68,52,6.29,broken clouds
483,Bahia De Caraquez,EC,-0.6,-80.4167,73.58,65,99,5.5,overcast clouds
484,Tacuati,PY,-23.45,-56.5833,93.18,48,0,8.21,clear sky
485,Mrakovo,RU,52.7161,56.6244,30.88,61,100,3.24,overcast clouds
486,Douentza,ML,14.9951,-2.9517,92.93,10,0,7.96,clear sky
487,Kavaratti,IN,10.5669,72.642,83.16,63,2,5.32,clear sky
488,Batagay-Alyta,RU,67.8006,130.4114,-9.44,86,30,4.81,scattered clouds
489,Sigli,ID,5.3848,95.9609,80.02,82,85,1.81,light rain
490,Port Hawkesbury,CA,45.6169,-61.3485,53.58,50,0,9.22,clear sky
491,Heihe,CN,50.2441,127.4902,23.58,50,26,2.33,scattered clouds
492,Strelka,RU,58.0728,93.0344,28.89,91,100,8.84,light snow
493,Myitkyina,MM,25.3833,97.4,69.62,72,0,2.28,clear sky
494,Sinnamary,GF,5.3833,-52.95,79.23,85,93,12.1,heavy intensity rain
495,General Bravo,MX,25.8,-99.1667,69.3,43,11,17.69,few clouds
496,Jiupu,CN,41.0667,122.95,44.85,41,99,2.51,overcast clouds
497,Mbandaka,CD,0.0487,18.2603,76.68,87,62,2.13,light rain
498,Ambilobe,MG,-13.2,49.05,77.02,73,70,3.53,light rain
499,Ogulin,HR,45.2661,15.2286,59.83,71,9,1.57,clear sky
500,Ishinomaki,JP,38.4167,141.3,49.41,79,0,10.09,clear sky
501,Cururupu,BR,-1.8283,-44.8683,91.63,46,99,8.88,overcast clouds
502,Sawtell,AU,-30.3833,153.1,57.18,94,1,4.61,clear sky
503,Lundazi,ZM,-12.2929,33.1782,81.03,25,17,10.74,few clouds
504,Koson,UZ,39.0375,65.585,64.72,38,80,7.96,broken clouds
505,Erzin,TR,36.9559,36.2,69.76,31,0,5.26,clear sky
506,Ramhormoz,IR,31.28,49.6035,84.4,35,30,7.56,scattered clouds
507,Peleduy,RU,59.6289,112.7406,30.38,82,99,6.69,overcast clouds
508,Kharp,RU,66.8014,65.8081,15.13,99,97,2.13,overcast clouds
509,Ca Mau,VN,9.1769,105.15,76.84,89,100,3.71,overcast clouds
510,Shitkino,RU,56.3703,98.3543,30.65,59,93,10.16,overcast clouds
511,Pochutla,MX,15.7432,-96.4661,85.82,66,44,2.57,scattered clouds
512,Freetown,SL,8.484,-13.2299,82.0,74,100,6.6,light rain
513,Janikowo,PL,52.7533,18.1133,58.23,83,100,7.9,overcast clouds
514,Oyugis,KE,-0.509,34.7358,75.78,69,99,4.29,overcast clouds
515,Santa Maria,BR,-29.6842,-53.8069,85.3,45,40,10.36,scattered clouds
516,San Rafael,AR,-34.6177,-68.3301,75.24,29,70,6.76,broken clouds
517,Veraval,IN,20.9,70.3667,80.08,64,0,1.83,clear sky
518,Longyearbyen,SJ,78.2186,15.6401,21.04,73,75,13.8,broken clouds
519,Hornepayne,CA,49.2138,-84.7705,50.67,59,97,13.27,overcast clouds
520,Grand Gaube,MU,-20.0064,57.6608,75.6,70,4,3.0,clear sky
521,Wynyard,AU,-41.0,145.7167,45.99,76,8,5.39,clear sky
522,Srednekolymsk,RU,67.45,153.6833,-13.72,100,91,2.84,overcast clouds
523,Toktogul,KG,41.8708,72.9402,51.58,63,80,1.32,broken clouds
524,Tofield,CA,53.3668,-112.6686,40.37,46,92,14.36,overcast clouds
525,Yatsuo,JP,36.5667,137.1333,51.22,75,94,4.0,overcast clouds
526,Turukhansk,RU,65.8167,87.9833,23.25,95,100,16.33,light snow
527,Tuatapere,NZ,-46.1333,167.6833,51.26,95,50,4.16,scattered clouds
528,Lazurne,UA,46.084,32.5295,56.5,78,9,12.08,clear sky
529,Can Tho,VN,10.0333,105.7833,76.98,100,40,1.14,scattered clouds
530,Eldorado,BR,-23.7869,-54.2836,85.71,62,46,11.56,heavy intensity rain
531,Aleksandrovsk-Sakhalinskiy,RU,50.8975,142.1561,33.58,77,40,4.23,scattered clouds
532,Atambua,ID,-9.1061,124.8925,75.74,86,93,1.28,overcast clouds
533,Korla,CN,41.7597,86.1469,50.11,41,9,7.92,clear sky
534,Raudeberg,NO,61.9875,5.1352,48.87,1,96,7.56,overcast clouds
535,Qinzhou,CN,21.95,108.6167,73.11,65,7,6.82,clear sky
536,Gushikawa,JP,26.3544,127.8686,76.23,88,49,18.66,scattered clouds
537,Burgeo,CA,47.6167,-57.6152,50.34,65,11,22.73,few clouds
538,Nome,US,64.5011,-165.4064,23.07,86,100,6.91,light snow
539,Ballina,AU,-28.8667,153.5667,61.21,64,14,7.92,few clouds
540,Cavalcante,BR,-13.7975,-47.4583,85.03,45,76,5.3,broken clouds
541,Roebourne,AU,-20.7833,117.1333,72.16,36,0,22.3,clear sky
542,Copiapo,CL,-27.3667,-70.3333,55.09,24,0,7.63,clear sky
543,Bima,ID,-8.4667,118.7167,76.01,79,73,5.46,broken clouds
544,Purranque,CL,-40.9167,-73.1667,49.33,97,100,8.28,overcast clouds
545,Abu Samrah,SY,35.3029,37.1841,71.94,31,0,10.58,clear sky
546,Alta Floresta,BR,-9.8756,-56.0861,85.82,70,40,3.44,scattered clouds
547,Chateauroux,FR,46.8167,1.7,73.4,49,0,4.61,clear sky
548,Sao Jose Da Coroa Grande,BR,-8.8978,-35.1478,82.18,62,92,10.89,overcast clouds
549,Aripuana,BR,-9.1667,-60.6333,78.19,83,100,0.38,overcast clouds
550,Tonj,SS,7.2737,28.6822,80.89,64,100,2.35,overcast clouds
551,Sukumo,JP,32.9333,132.7333,59.34,74,57,3.04,broken clouds
552,Quatre Cocos,MU,-20.2078,57.7625,75.31,75,0,10.0,clear sky
553,Rabo De Peixe,PT,37.8,-25.5833,68.27,95,20,8.05,few clouds
554,Colquechaca,BO,-18.6667,-66.0167,51.33,9,4,7.38,clear sky
555,Palm Springs,US,33.8303,-116.5453,74.3,23,0,2.64,clear sky
556,Bay Roberts,CA,47.5999,-53.2648,53.33,57,2,10.0,clear sky
557,West Bay,KY,19.3667,-81.4167,88.07,73,20,14.97,few clouds
558,Corridonia,IT,43.2511,13.5088,65.68,64,0,3.49,clear sky
559,Nouadhibou,MR,20.931,-17.0347,91.38,25,65,8.05,dust
560,Port Hardy,CA,50.6996,-127.4199,46.58,100,100,5.75,overcast clouds
561,Meadow Lake,US,34.8014,-106.5436,55.42,40,0,4.61,clear sky
562,Shuangyang,CN,43.5242,125.6736,34.88,60,0,2.21,clear sky
563,Turbat,PK,26.0023,63.044,78.98,66,5,7.7,clear sky
564,Dunedin,NZ,-45.8742,170.5036,56.8,66,52,2.73,broken clouds
565,Lompoc,US,34.6391,-120.4579,55.6,98,100,8.05,mist
566,Svetlogorsk,BY,52.6333,29.7333,53.76,86,100,11.27,overcast clouds
567,Youghal,IE,51.95,-7.8506,57.09,88,49,23.85,scattered clouds
568,Dwarka,IN,22.2394,68.9678,81.77,64,0,13.69,clear sky
569,Pacific Grove,US,36.6177,-121.9166,51.46,96,4,1.01,clear sky
570,Aswan,EG,24.0934,32.907,83.17,22,27,9.86,scattered clouds
571,Walvis Bay,NA,-22.9575,14.5053,65.35,68,75,11.5,broken clouds
572,Caruray,PH,10.3094,119.0128,80.67,86,100,19.77,overcast clouds
573,Maple Creek,CA,49.9168,-109.4848,46.45,42,26,12.66,scattered clouds
574,Vila Franca Do Campo,PT,37.7167,-25.4333,69.19,56,81,7.05,broken clouds
575,Cooma,AU,-36.2333,149.1333,37.67,90,2,3.15,clear sky
576,Puerto Carreno,CO,6.189,-67.4859,87.78,70,20,4.61,few clouds
577,Capreol,CA,46.706,-80.9225,50.56,87,75,11.5,broken clouds
578,Nuuk,GL,64.1835,-51.7216,34.88,69,100,23.0,overcast clouds
579,Tiznit,MA,29.5833,-9.5,86.16,9,96,14.41,overcast clouds
580,Gornopravdinsk,RU,60.05,69.9,29.5,84,100,7.36,overcast clouds
581,Kamenicky Senov,CZ,50.7736,14.4729,60.37,89,100,2.95,overcast clouds
582,High Level,CA,58.5169,-117.136,30.31,93,75,3.44,light snow
583,Yangambi,CD,0.8102,24.4336,73.0,85,100,1.14,overcast clouds
584,Paamiut,GL,61.994,-49.6678,34.14,88,100,20.4,snow
585,Canutama,BR,-6.5339,-64.3831,74.57,97,100,1.12,overcast clouds
586,Ahuimanu,US,21.4447,-157.8378,76.86,85,17,11.95,few clouds
587,Anadyr,RU,64.75,177.4833,7.3,78,0,20.13,clear sky
588,Labuhan,ID,-6.8844,112.2051,77.7,75,93,10.98,overcast clouds
589,Los Llanos De Aridane,ES,28.6585,-17.9182,75.13,81,75,5.99,broken clouds
590,Igarka,RU,67.4667,86.5833,19.78,92,99,12.21,overcast clouds
591,Cuauhtemoc,MX,28.4167,-106.8667,50.18,43,0,7.56,clear sky
592,Lasa,IT,46.6166,10.7002,60.37,70,29,1.23,scattered clouds
593,Vakhtan,RU,57.9659,46.6889,37.58,97,100,8.08,overcast clouds
594,Arlit,NE,18.7369,7.3853,87.44,11,0,6.69,clear sky
595,Ponta Delgada,PT,37.7333,-25.6667,69.49,55,20,8.05,few clouds
596,Nichinan,JP,31.6,131.3667,61.81,68,5,13.11,clear sky
597,Nanning,CN,22.8167,108.3167,70.25,60,43,7.18,scattered clouds
598,Japura,ID,-0.3167,102.35,74.95,98,90,1.9,overcast clouds
599,Esmeraldas,BR,-19.7625,-44.3139,86.11,23,33,3.94,scattered clouds
600,Inhambane,MZ,-23.865,35.3833,73.53,81,84,13.51,light rain
601,Maracana,BR,-0.7667,-47.45,93.49,41,100,10.0,overcast clouds
602,Bend,US,44.0582,-121.3153,46.72,63,40,4.0,scattered clouds
603,Cadiz,ES,36.5,-5.75,80.02,57,100,12.5,overcast clouds
604,Poum,NC,-20.2333,164.0167,78.03,76,0,3.69,clear sky
605,Hobyo,SO,5.3505,48.5268,80.38,74,10,10.54,clear sky
606,Nantucket,US,41.2835,-70.0995,58.08,84,86,13.58,overcast clouds
607,Necochea,AR,-38.5473,-58.7368,62.08,52,45,15.95,scattered clouds
608,Akdepe,TM,42.0551,59.3788,51.89,49,100,9.06,overcast clouds
609,Linxia,CN,35.6003,103.2064,41.86,82,10,3.02,clear sky
610,Buy,RU,58.4786,41.53,44.35,97,100,7.54,overcast clouds
611,Santa Isabel Do Rio Negro,BR,-0.4139,-65.0192,80.29,81,100,4.7,overcast clouds
612,Bandarbeyla,SO,9.4942,50.8122,78.85,70,42,12.24,scattered clouds
613,Hapao,PH,16.8797,121.016,71.2,99,100,9.22,overcast clouds
614,Saiha,IN,22.4833,92.9667,67.48,92,7,3.0,clear sky
615,Maragogi,BR,-9.0122,-35.2225,81.72,65,94,10.83,overcast clouds
616,Sangar,RU,63.9242,127.4739,2.66,92,100,4.47,overcast clouds
617,Hasaki,JP,35.7333,140.8333,52.29,59,0,17.29,clear sky
618,Hellendoorn,NL,52.3902,6.448,68.41,82,100,7.87,overcast clouds
619,Umm Lajj,SA,25.0213,37.2685,81.9,59,31,8.88,scattered clouds
620,Mount Isa,AU,-20.7333,139.5,73.17,49,91,6.91,light rain
621,Azare,NG,11.6765,10.1948,88.12,21,100,7.16,overcast clouds
622,Kalach-Na-Donu,RU,48.691,43.5264,44.82,74,92,6.26,overcast clouds
623,Maniitsoq,GL,65.4167,-52.9,31.77,69,100,24.58,overcast clouds
624,Acapulco,MX,16.8634,-99.8901,82.6,80,43,2.04,scattered clouds
625,Padang,ID,-0.9492,100.3543,78.85,86,99,2.33,overcast clouds
626,Troitsko-Pechorsk,RU,62.7084,56.1964,33.01,97,100,9.78,overcast clouds
627,Bayanday,RU,53.0661,105.5139,29.98,95,100,8.19,light snow
628,Hurghada,EG,27.2574,33.8129,77.5,65,0,10.92,clear sky
629,Jalu,LY,29.0331,21.5482,73.47,28,0,10.78,clear sky
630,Road Town,VG,18.4167,-64.6167,86.04,74,40,13.8,scattered clouds
631,Kiruna,SE,67.8557,20.2251,31.12,69,8,14.97,clear sky
632,Krasnoarmeysk,RU,51.0239,45.6969,38.57,80,94,7.07,overcast clouds
633,Aykhal,RU,66.0,111.5,0.9,100,96,6.89,overcast clouds
634,Ambad,IN,19.6167,75.8,68.95,57,0,7.18,clear sky
635,Trairi,BR,-3.2778,-39.2689,89.02,53,87,19.19,overcast clouds
636,Bantry,IE,51.6833,-9.45,56.79,90,65,19.17,broken clouds
637,Am Timan,TD,11.0297,20.2827,87.66,27,76,4.0,broken clouds
638,Manta,EC,-0.95,-80.7333,73.18,78,100,6.91,overcast clouds
639,Doba,TD,8.65,16.85,86.04,46,17,2.82,few clouds
640,Dauriya,RU,49.9333,116.8667,38.34,31,100,13.27,light rain
641,Makakilo City,US,21.3469,-158.0858,75.69,84,75,3.44,broken clouds
642,Severodvinsk,RU,64.5635,39.8302,41.11,92,100,18.12,overcast clouds
643,Mashhad,IR,36.297,59.6062,60.94,55,40,0.0,scattered clouds
644,Santa Teresa,VE,10.2341,-66.6631,86.9,53,82,2.57,broken clouds
645,Bull Savanna,JM,17.8868,-77.5902,82.83,59,44,3.49,scattered clouds
646,Taguatinga,BR,-12.3857,-46.5711,86.36,49,100,4.88,overcast clouds
647,Arroyos Y Esteros,PY,-25.0667,-57.1,91.2,56,0,9.4,clear sky
648,Troitskoye,RU,52.9821,84.6757,28.27,63,57,3.91,broken clouds
649,Yilan,TW,24.757,121.753,77.02,94,100,8.05,light rain
650,Vung Tau,VN,10.346,107.0843,80.92,79,97,6.64,moderate rain
651,Okhotsk,RU,59.3833,143.3,22.89,62,1,17.13,clear sky
652,Kenai,US,60.5544,-151.2583,29.14,82,100,15.97,overcast clouds
653,Yeppoon,AU,-23.1333,150.7333,64.18,81,9,2.46,clear sky
654,Pierrelatte,FR,44.3776,4.702,77.11,64,100,2.59,overcast clouds
655,Wenling,CN,28.3669,121.36,61.38,84,5,9.55,clear sky
656,Comodoro Rivadavia,AR,-45.8667,-67.5,55.26,19,40,14.97,scattered clouds
657,Fallon,US,39.4735,-118.7774,53.06,19,2,1.57,clear sky
658,Bubaque,GW,11.2833,-15.8333,83.82,71,70,6.6,light rain
659,Inirida,CO,3.8653,-67.9239,76.96,96,100,0.69,heavy intensity rain
660,Locri,IT,38.2414,16.2623,66.33,69,0,4.18,clear sky
661,Oriximina,BR,-1.7656,-55.8661,96.04,33,79,6.85,broken clouds
662,Elizabeth City,US,36.2946,-76.2511,66.22,75,100,17.27,overcast clouds
663,Cap Malheureux,MU,-19.9842,57.6142,74.46,70,6,4.0,clear sky
664,Kolokani,ML,13.5728,-8.0339,92.57,15,3,7.52,clear sky
665,Evensk,RU,61.95,159.2333,15.48,95,100,9.28,snow
666,Lishu,CN,43.3047,124.3278,37.63,54,25,6.02,scattered clouds
667,Rawson,AR,-43.3002,-65.1023,59.29,20,0,19.57,clear sky
668,Catuday,PH,16.2923,119.8062,79.66,84,100,27.74,moderate rain
669,Apozol,MX,21.4833,-103.1,72.43,30,0,3.78,clear sky
670,East Angus,CA,45.4834,-71.6658,45.23,63,20,3.44,few clouds
671,Havelock,US,34.8791,-76.9013,67.95,88,100,13.8,overcast clouds
672,Tariba,VE,7.8188,-72.2243,77.56,44,98,3.11,overcast clouds
673,Gomel,BY,52.4345,30.9754,57.81,88,100,13.42,light intensity shower rain
674,Vakhrushev,RU,48.9833,142.9667,39.2,83,96,10.2,overcast clouds
675,Portmore,JM,17.9702,-76.8672,88.05,61,20,5.75,few clouds
676,San Jeronimo,PE,-11.9472,-75.2829,64.26,26,18,2.75,few clouds
677,Emirdag,TR,39.0197,31.15,49.91,47,0,4.03,clear sky
678,Tansen,NP,27.8673,83.5467,55.74,77,0,4.54,clear sky
679,Guerrero Negro,MX,27.9769,-114.0611,70.72,61,0,10.56,clear sky
680,Ahipara,NZ,-35.1667,173.1667,62.64,97,100,6.6,moderate rain
681,Bismarck,US,46.8083,-100.7837,47.8,68,0,8.05,clear sky
682,Dicabisagan,PH,17.0818,122.4157,80.46,90,100,19.35,moderate rain
683,Palmer,US,42.1584,-72.3287,57.51,53,4,1.01,clear sky
684,Mugumu,TZ,-1.85,34.7,74.34,48,99,7.07,overcast clouds
685,Ziro,IN,27.6333,93.8333,46.92,81,0,2.39,clear sky
686,Vestmanna,FO,62.1564,-7.1664,43.72,93,75,10.36,broken clouds
687,Lethem,GY,3.3803,-59.7968,92.64,47,98,7.27,overcast clouds
688,Pakxan,LA,18.3778,103.6601,70.95,79,99,2.51,overcast clouds
689,Cochrane,CA,51.1834,-114.4687,45.23,36,0,21.85,clear sky
690,Elban,RU,50.1018,136.5094,31.24,80,1,2.48,clear sky
691,Saint-Leu,RE,-21.15,55.2833,74.26,75,31,6.22,scattered clouds
692,Jimenez,MX,28.3333,-105.4,60.46,38,0,3.47,clear sky
693,Hudson Bay,CA,52.85,-102.3842,43.39,43,8,6.8,clear sky
694,Bozova,TR,37.3625,38.5267,61.72,24,0,1.48,clear sky
695,Saint-Augustin,CA,51.226,-58.6502,49.89,56,71,21.72,broken clouds
696,Ho Chi Minh City,VN,10.75,106.6667,80.62,83,40,5.75,scattered clouds
697,Huron,US,41.1501,-82.5499,62.67,64,0,5.26,clear sky
698,Astana,KZ,51.1801,71.446,28.35,86,0,8.95,clear sky
699,Sinop,TR,41.7711,34.8709,46.81,90,23,3.96,few clouds
700,Danjiangkou,CN,32.5428,111.5086,59.02,75,95,4.16,overcast clouds
701,Koutiala,ML,12.3917,-5.4642,94.14,19,0,5.66,clear sky
702,Sundsvall,SE,62.3913,17.3063,45.97,48,13,19.57,few clouds
703,Dauphin,CA,51.1494,-100.0502,49.6,41,30,5.14,scattered clouds
